{
    "parkList": [
        {
            "parkId": "2381",
            "parkName": "1293 Yavuz Selim Otomatik Otoparkı",
            "lat": "41.0233",
            "lng": "28.9529",
            "capacity": 60,
            "emptyCapacity": 59,
            "workHours": "24 Saat",
            "parkType": "KAPALI OTOPARK",
            "freeTime": 15,
            "district": "FATİH",
            "isOpen": true
        },
        {
            "parkId": "2866",
            "parkName": "15 Temmuz Demokrasi Otogarı",
            "lat": "41.0416",
            "lng": "28.8946",
            "capacity": 1000,
            "emptyCapacity": 0,
            "workHours": "24 Saat",
            "parkType": "AÇIK OTOPARK",
            "freeTime": 40,
            "district": "BAYRAMPAŞA",
            "isOpen": true
        },
        {
            "parkId": "3068",
            "parkName": "15 Temmuz Şehitler Meydanı Zeminaltı Otoparkı",
            "lat": "41.0251",
            "lng": "29.0912",
            "capacity": 1029,
            "emptyCapacity": 449,
            "workHours": "24 Saat",
            "parkType": "KAPALI OTOPARK",
            "freeTime": 15,
            "district": "ÜMRANİYE",
            "isOpen": true
        },
        {
            "parkId": "2338",
            "parkName": "19 Mayıs Açık",
            "lat": "41.0563",
            "lng": "28.9941",
            "capacity": 65,
            "emptyCapacity": 0,
            "workHours": "24 Saat",
            "parkType": "AÇIK OTOPARK",
            "freeTime": 0,
            "district": "ŞİŞLİ",
            "isOpen": true
        },
        {
            "parkId": "787",
            "parkName": "19 Mayıs Caddesi 2",
            "lat": "40.8786",
            "lng": "29.2307",
            "capacity": 15,
            "emptyCapacity": 12,
            "workHours": "09:00-19:00",
            "parkType": "YOL ÜSTÜ",
            "freeTime": 15,
            "district": "PENDİK",
            "isOpen": false
        },
        {
            "parkId": "788",
            "parkName": "19 Mayıs Caddesi 3",
            "lat": "40.878",
            "lng": "29.2312",
            "capacity": 20,
            "emptyCapacity": 19,
            "workHours": "09:00-19:00",
            "parkType": "YOL ÜSTÜ",
            "freeTime": 15,
            "district": "PENDİK",
            "isOpen": false
        },
        {
            "parkId": "789",
            "parkName": "19 Mayıs Caddesi 4",
            "lat": "40.8774",
            "lng": "29.2317",
            "capacity": 40,
            "emptyCapacity": 40,
            "workHours": "09:00-19:00",
            "parkType": "YOL ÜSTÜ",
            "freeTime": 15,
            "district": "PENDİK",
            "isOpen": false
        },
        {
            "parkId": "1751",
            "parkName": "4.Levent P+R Açık Otoparkı",
            "lat": "41.0836",
            "lng": "29.0081",
            "capacity": 710,
            "emptyCapacity": 418,
            "workHours": "24 Saat",
            "parkType": "AÇIK OTOPARK",
            "freeTime": 5,
            "district": "KAĞITHANE",
            "isOpen": true
        },
        {
            "parkId": "101",
            "parkName": "Abide-i Hürriyet Caddesi 2",
            "lat": "41.0634",
            "lng": "28.9876",
            "capacity": 30,
            "emptyCapacity": 30,
            "workHours": "08:00-18:00",
            "parkType": "YOL ÜSTÜ",
            "freeTime": 15,
            "district": "ŞİŞLİ",
            "isOpen": false
        },
        {
            "parkId": "103",
            "parkName": "Abide-i Hürriyet Caddesi 4",
            "lat": "41.0621",
            "lng": "28.9875",
            "capacity": 25,
            "emptyCapacity": 10,
            "workHours": "08:00-18:00",
            "parkType": "YOL ÜSTÜ",
            "freeTime": 15,
            "district": "ŞİŞLİ",
            "isOpen": false
        },
        {
            "parkId": "104",
            "parkName": "Abide-i Hürriyet Caddesi 5",
            "lat": "41.0612",
            "lng": "28.9873",
            "capacity": 40,
            "emptyCapacity": 23,
            "workHours": "08:00-18:00",
            "parkType": "YOL ÜSTÜ",
            "freeTime": 15,
            "district": "ŞİŞLİ",
            "isOpen": false
        },
        {
            "parkId": "105",
            "parkName": "Abide-i Hürriyet Caddesi 6",
            "lat": "41.0606",
            "lng": "28.9871",
            "capacity": 40,
            "emptyCapacity": 40,
            "workHours": "08:00-18:00",
            "parkType": "YOL ÜSTÜ",
            "freeTime": 15,
            "district": "ŞİŞLİ",
            "isOpen": false
        },
        {
            "parkId": "106",
            "parkName": "Abide-i Hürriyet Caddesi 7",
            "lat": "41.0599",
            "lng": "28.9867",
            "capacity": 40,
            "emptyCapacity": 40,
            "workHours": "08:00-18:00",
            "parkType": "YOL ÜSTÜ",
            "freeTime": 15,
            "district": "ŞİŞLİ",
            "isOpen": false
        },
        {
            "parkId": "107",
            "parkName": "Abide-i Hürriyet Caddesi 8",
            "lat": "41.059",
            "lng": "28.9863",
            "capacity": 30,
            "emptyCapacity": 30,
            "workHours": "08:00-18:00",
            "parkType": "YOL ÜSTÜ",
            "freeTime": 15,
            "district": "ŞİŞLİ",
            "isOpen": false
        },
        {
            "parkId": "2452",
            "parkName": "Acıbadem Açık Otoparkı",
            "lat": "41.0158",
            "lng": "29.0576",
            "capacity": 100,
            "emptyCapacity": 91,
            "workHours": "06:30-16:30",
            "parkType": "AÇIK OTOPARK",
            "freeTime": 0,
            "district": "ÜSKÜDAR",
            "isOpen": false
        },
        {
            "parkId": "345",
            "parkName": "Ada Karşısı 1",
            "lat": "41.0613",
            "lng": "29.0376",
            "capacity": 25,
            "emptyCapacity": 9,
            "workHours": "08:00-23:00",
            "parkType": "YOL ÜSTÜ",
            "freeTime": 15,
            "district": "BEŞİKTAŞ",
            "isOpen": true
        },
        {
            "parkId": "346",
            "parkName": "Ada Karşısı Cep 2",
            "lat": "41.0722",
            "lng": "29.0449",
            "capacity": 30,
            "emptyCapacity": 3,
            "workHours": "08:00-23:00",
            "parkType": "YOL ÜSTÜ",
            "freeTime": 15,
            "district": "BEŞİKTAŞ",
            "isOpen": true
        },
        {
            "parkId": "194",
            "parkName": "Adliye Önü 1",
            "lat": "41.0799",
            "lng": "29.0115",
            "capacity": 40,
            "emptyCapacity": 29,
            "workHours": "07:00-18:00",
            "parkType": "YOL ÜSTÜ",
            "freeTime": 15,
            "district": "ŞİŞLİ",
            "isOpen": false
        },
        {
            "parkId": "2357",
            "parkName": "Adnan Kahveci Metro Açık Otoparkı",
            "lat": "40.895",
            "lng": "29.2274",
            "capacity": 40,
            "emptyCapacity": 40,
            "workHours": "07:30-17:30",
            "parkType": "AÇIK OTOPARK",
            "freeTime": 0,
            "district": "PENDİK",
            "isOpen": false
        },
        {
            "parkId": "3105",
            "parkName": "Adnan Menderes Vatan Bulvarı 1",
            "lat": "41.0207",
            "lng": "28.9341",
            "capacity": 35,
            "emptyCapacity": 25,
            "workHours": "07:00-17:00",
            "parkType": "YOL ÜSTÜ",
            "freeTime": 0,
            "district": "FATİH",
            "isOpen": false
        },
        {
            "parkId": "3106",
            "parkName": "Adnan Menderes Vatan Bulvarı 2",
            "lat": "41.0194",
            "lng": "28.936",
            "capacity": 35,
            "emptyCapacity": 25,
            "workHours": "07:00-17:00",
            "parkType": "YOL ÜSTÜ",
            "freeTime": 0,
            "district": "FATİH",
            "isOpen": false
        },
        {
            "parkId": "3107",
            "parkName": "Adnan Menderes Vatan Bulvarı 3",
            "lat": "41.0178",
            "lng": "28.9385",
            "capacity": 35,
            "emptyCapacity": 35,
            "workHours": "07:00-17:00",
            "parkType": "YOL ÜSTÜ",
            "freeTime": 0,
            "district": "FATİH",
            "isOpen": false
        },
        {
            "parkId": "3108",
            "parkName": "Adnan Menderes Vatan Bulvarı 4",
            "lat": "41.0171",
            "lng": "28.9394",
            "capacity": 35,
            "emptyCapacity": 29,
            "workHours": "07:00-17:00",
            "parkType": "YOL ÜSTÜ",
            "freeTime": 0,
            "district": "FATİH",
            "isOpen": false
        },
        {
            "parkId": "3109",
            "parkName": "Adnan Menderes Vatan Bulvarı 5",
            "lat": "41.0177",
            "lng": "28.9385",
            "capacity": 35,
            "emptyCapacity": 27,
            "workHours": "07:00-17:00",
            "parkType": "YOL ÜSTÜ",
            "freeTime": 0,
            "district": "FATİH",
            "isOpen": false
        },
        {
            "parkId": "3110",
            "parkName": "Adnan Menderes Vatan Bulvarı 6",
            "lat": "41.021",
            "lng": "28.9336",
            "capacity": 35,
            "emptyCapacity": 25,
            "workHours": "07:00-17:00",
            "parkType": "YOL ÜSTÜ",
            "freeTime": 0,
            "district": "FATİH",
            "isOpen": false
        },
        {
            "parkId": "215",
            "parkName": "Afiyet Hastanesi Önü 1",
            "lat": "41.0241",
            "lng": "29.0841",
            "capacity": 20,
            "emptyCapacity": 11,
            "workHours": "08:00-18:00",
            "parkType": "YOL ÜSTÜ",
            "freeTime": 15,
            "district": "ÜMRANİYE",
            "isOpen": false
        },
        {
            "parkId": "26",
            "parkName": "Ahmet Fetgari Sk.",
            "lat": "41.05",
            "lng": "28.9942",
            "capacity": 21,
            "emptyCapacity": 7,
            "workHours": "08:00-18:00",
            "parkType": "YOL ÜSTÜ",
            "freeTime": 15,
            "district": "ŞİŞLİ",
            "isOpen": false
        },
        {
            "parkId": "939",
            "parkName": "Ahmet Kutsi Tecer Caddesi 1",
            "lat": "41.0087",
            "lng": "28.887",
            "capacity": 50,
            "emptyCapacity": 50,
            "workHours": "09:00-17:00",
            "parkType": "YOL ÜSTÜ",
            "freeTime": 15,
            "district": "GÜNGÖREN",
            "isOpen": false
        },
        {
            "parkId": "1662",
            "parkName": "Akasyalı Sokak Tenis Clübü Önü 1",
            "lat": "41.0863",
            "lng": "29.0113",
            "capacity": 45,
            "emptyCapacity": 45,
            "workHours": "08:00-18:00",
            "parkType": "YOL ÜSTÜ",
            "freeTime": 15,
            "district": "BEŞİKTAŞ",
            "isOpen": false
        },
        {
            "parkId": "224",
            "parkName": "Akçam Sokak (İş Bankası Önü) 1",
            "lat": "41.0866",
            "lng": "29.0081",
            "capacity": 30,
            "emptyCapacity": 27,
            "workHours": "08:00-20:00",
            "parkType": "YOL ÜSTÜ",
            "freeTime": 15,
            "district": "BEŞİKTAŞ",
            "isOpen": true
        },
        {
            "parkId": "827",
            "parkName": "Akdeniz Caddesi 3",
            "lat": "41.0187",
            "lng": "28.9457",
            "capacity": 25,
            "emptyCapacity": 12,
            "workHours": "09:00-18:00",
            "parkType": "YOL ÜSTÜ",
            "freeTime": 15,
            "district": "FATİH",
            "isOpen": false
        },
        {
            "parkId": "1250",
            "parkName": "Akgün Caddesi 1",
            "lat": "41.1292",
            "lng": "29.0248",
            "capacity": 78,
            "emptyCapacity": 57,
            "workHours": "07:00-17:00",
            "parkType": "YOL ÜSTÜ",
            "freeTime": 15,
            "district": "SARIYER",
            "isOpen": false
        },
        {
            "parkId": "2497",
            "parkName": "Albay Faik Sözdener 4",
            "lat": "40.9874",
            "lng": "29.0214",
            "capacity": 40,
            "emptyCapacity": 10,
            "workHours": "09:45-20:00",
            "parkType": "YOL ÜSTÜ",
            "freeTime": 15,
            "district": "KADIKÖY",
            "isOpen": true
        },
        {
            "parkId": "144",
            "parkName": "Alemdağ Caddesi 1",
            "lat": "41.0251",
            "lng": "29.0999",
            "capacity": 18,
            "emptyCapacity": 15,
            "workHours": "09:00-18:00",
            "parkType": "YOL ÜSTÜ",
            "freeTime": 15,
            "district": "ÜMRANİYE",
            "isOpen": false
        },
        {
            "parkId": "1913",
            "parkName": "Alibeyköy Cep Otogarı Açık Otoparkı",
            "lat": "41.0878",
            "lng": "28.9445",
            "capacity": 116,
            "emptyCapacity": 0,
            "workHours": "24 Saat",
            "parkType": "AÇIK OTOPARK",
            "freeTime": 30,
            "district": "EYÜP",
            "isOpen": true
        },
        {
            "parkId": "1912",
            "parkName": "Alibeyköy Cep Otogarı Otobüs Otoparkı",
            "lat": "41.0876",
            "lng": "28.9452",
            "capacity": 5000,
            "emptyCapacity": 4979,
            "workHours": "24 Saat",
            "parkType": "AÇIK OTOPARK",
            "freeTime": 60,
            "district": "EYÜP",
            "isOpen": true
        },
        {
            "parkId": "2562",
            "parkName": "Alibeyköy Yeşiltepe Zemin Altı Otoparkı",
            "lat": "41.0793",
            "lng": "28.9385",
            "capacity": 159,
            "emptyCapacity": 14,
            "workHours": "24 Saat",
            "parkType": "KAPALI OTOPARK",
            "freeTime": 15,
            "district": "EYÜP",
            "isOpen": true
        },
        {
            "parkId": "3201",
            "parkName": "Altınboynuz Sosyal Tesisleri",
            "lat": "41.0581",
            "lng": "28.9449",
            "capacity": 70,
            "emptyCapacity": 53,
            "workHours": "07:00-23:00",
            "parkType": "AÇIK OTOPARK",
            "freeTime": 15,
            "district": "EYÜP",
            "isOpen": true
        },
        {
            "parkId": "2154",
            "parkName": "Altunizade Açık Otopark",
            "lat": "41.0245",
            "lng": "29.0395",
            "capacity": 80,
            "emptyCapacity": 80,
            "workHours": "08:00-19:00",
            "parkType": "AÇIK OTOPARK",
            "freeTime": 5,
            "district": "ÜSKÜDAR",
            "isOpen": false
        },
        {
            "parkId": "2339",
            "parkName": "Altunizade Aksoy Sokak 1",
            "lat": "41.0208",
            "lng": "29.0381",
            "capacity": 30,
            "emptyCapacity": 30,
            "workHours": "08:00-19:00",
            "parkType": "YOL ÜSTÜ",
            "freeTime": 15,
            "district": "ÜSKÜDAR",
            "isOpen": false
        },
        {
            "parkId": "1963",
            "parkName": "Aras Sokak 1",
            "lat": "41.0225",
            "lng": "28.6223",
            "capacity": 60,
            "emptyCapacity": 60,
            "workHours": "06:00-15:00",
            "parkType": "YOL ÜSTÜ",
            "freeTime": 0,
            "district": "BÜYÜKÇEKMECE",
            "isOpen": false
        },
        {
            "parkId": "3086",
            "parkName": "Arda Turan Spor Kompleksi Katlı",
            "lat": "41.0386",
            "lng": "28.907",
            "capacity": 500,
            "emptyCapacity": 312,
            "workHours": "24 Saat",
            "parkType": "KAPALI OTOPARK",
            "freeTime": 15,
            "district": "BAYRAMPAŞA",
            "isOpen": true
        },
        {
            "parkId": "2802",
            "parkName": "Arnavutköy Zemin Altı Otoparkı",
            "lat": "41.1835",
            "lng": "28.7395",
            "capacity": 700,
            "emptyCapacity": 341,
            "workHours": "24 Saat",
            "parkType": "KAPALI OTOPARK",
            "freeTime": 15,
            "district": "ARNAVUTKÖY",
            "isOpen": true
        },
        {
            "parkId": "1895",
            "parkName": "Aslanhane Sokak 1",
            "lat": "41.0177",
            "lng": "28.9505",
            "capacity": 26,
            "emptyCapacity": 6,
            "workHours": "08:30-17:30",
            "parkType": "YOL ÜSTÜ",
            "freeTime": 15,
            "district": "FATİH",
            "isOpen": false
        },
        {
            "parkId": "1797",
            "parkName": "Ataköy Atrium AVM",
            "lat": "40.9881",
            "lng": "28.8459",
            "capacity": 250,
            "emptyCapacity": 193,
            "workHours": "24 Saat",
            "parkType": "AÇIK OTOPARK",
            "freeTime": 15,
            "district": "BAKIRKÖY",
            "isOpen": true
        },
        {
            "parkId": "2824",
            "parkName": "Ataköy Metro Durağı Yanı Zemin Altı Otoparkı",
            "lat": "40.9904",
            "lng": "28.8456",
            "capacity": 150,
            "emptyCapacity": 60,
            "workHours": "24 Saat",
            "parkType": "KAPALI OTOPARK",
            "freeTime": 0,
            "district": "BAKIRKÖY",
            "isOpen": true
        },
        {
            "parkId": "3167",
            "parkName": "Ataşehir Al Zambak Sokak",
            "lat": "41.0011",
            "lng": "29.1039",
            "capacity": 71,
            "emptyCapacity": 71,
            "workHours": "07:30-17:00",
            "parkType": "YOL ÜSTÜ",
            "freeTime": 15,
            "district": "ATAŞEHİR",
            "isOpen": false
        },
        {
            "parkId": "3134",
            "parkName": "Ataşehir Ardıç Sokak 1",
            "lat": "40.9971",
            "lng": "29.1041",
            "capacity": 115,
            "emptyCapacity": 89,
            "workHours": "07:00-17:00",
            "parkType": "YOL ÜSTÜ",
            "freeTime": 15,
            "district": "ATAŞEHİR",
            "isOpen": false
        },
        {
            "parkId": "3136",
            "parkName": "Ataşehir Atilla İlhan Caddesi",
            "lat": "40.9845",
            "lng": "29.111",
            "capacity": 80,
            "emptyCapacity": 78,
            "workHours": "08:00-17:00",
            "parkType": "YOL ÜSTÜ",
            "freeTime": 15,
            "district": "ATAŞEHİR",
            "isOpen": false
        },
        {
            "parkId": "3128",
            "parkName": "Ataşehir Begonya Sokak 1",
            "lat": "41.0027",
            "lng": "29.103",
            "capacity": 55,
            "emptyCapacity": 53,
            "workHours": "07:00-17:00",
            "parkType": "YOL ÜSTÜ",
            "freeTime": 15,
            "district": "ATAŞEHİR",
            "isOpen": false
        },
        {
            "parkId": "3130",
            "parkName": "Ataşehir Begonya Sokak 3",
            "lat": "41.0007",
            "lng": "29.1008",
            "capacity": 55,
            "emptyCapacity": 46,
            "workHours": "07:00-17:00",
            "parkType": "YOL ÜSTÜ",
            "freeTime": 15,
            "district": "ATAŞEHİR",
            "isOpen": false
        },
        {
            "parkId": "3131",
            "parkName": "Ataşehir Begonya Sokak 4",
            "lat": "40.9996",
            "lng": "29.0986",
            "capacity": 55,
            "emptyCapacity": 55,
            "workHours": "07:00-17:00",
            "parkType": "YOL ÜSTÜ",
            "freeTime": 15,
            "district": "ATAŞEHİR",
            "isOpen": false
        },
        {
            "parkId": "328",
            "parkName": "Ataşehir Bulvarı 1",
            "lat": "40.9925",
            "lng": "29.1192",
            "capacity": 24,
            "emptyCapacity": 10,
            "workHours": "08:00-19:00",
            "parkType": "YOL ÜSTÜ",
            "freeTime": 15,
            "district": "ATAŞEHİR",
            "isOpen": false
        },
        {
            "parkId": "363",
            "parkName": "Ataşehir Bulvarı 10",
            "lat": "40.9932",
            "lng": "29.1277",
            "capacity": 21,
            "emptyCapacity": 14,
            "workHours": "08:00-19:00",
            "parkType": "YOL ÜSTÜ",
            "freeTime": 15,
            "district": "ATAŞEHİR",
            "isOpen": false
        },
        {
            "parkId": "365",
            "parkName": "Ataşehir Bulvarı 12",
            "lat": "40.9935",
            "lng": "29.1275",
            "capacity": 24,
            "emptyCapacity": 19,
            "workHours": "08:00-19:00",
            "parkType": "YOL ÜSTÜ",
            "freeTime": 15,
            "district": "ATAŞEHİR",
            "isOpen": false
        },
        {
            "parkId": "685",
            "parkName": "Ataşehir Bulvarı 16",
            "lat": "40.9917",
            "lng": "29.127",
            "capacity": 24,
            "emptyCapacity": 12,
            "workHours": "08:00-19:00",
            "parkType": "YOL ÜSTÜ",
            "freeTime": 15,
            "district": "ATAŞEHİR",
            "isOpen": false
        },
        {
            "parkId": "2537",
            "parkName": "Ataşehir Bulvarı 22",
            "lat": "40.9941",
            "lng": "29.1279",
            "capacity": 24,
            "emptyCapacity": 18,
            "workHours": "08:00-19:00",
            "parkType": "YOL ÜSTÜ",
            "freeTime": 15,
            "district": "ATAŞEHİR",
            "isOpen": false
        },
        {
            "parkId": "332",
            "parkName": "Ataşehir Bulvarı 5",
            "lat": "40.9928",
            "lng": "29.1253",
            "capacity": 24,
            "emptyCapacity": 18,
            "workHours": "08:00-19:00",
            "parkType": "YOL ÜSTÜ",
            "freeTime": 15,
            "district": "ATAŞEHİR",
            "isOpen": false
        },
        {
            "parkId": "335",
            "parkName": "Ataşehir Bulvarı 8",
            "lat": "40.9927",
            "lng": "29.1261",
            "capacity": 24,
            "emptyCapacity": 24,
            "workHours": "08:00-19:00",
            "parkType": "YOL ÜSTÜ",
            "freeTime": 15,
            "district": "ATAŞEHİR",
            "isOpen": false
        },
        {
            "parkId": "3137",
            "parkName": "Ataşehir Defne Sokak 1",
            "lat": "40.9818",
            "lng": "29.1026",
            "capacity": 44,
            "emptyCapacity": 21,
            "workHours": "06:45-16:00",
            "parkType": "YOL ÜSTÜ",
            "freeTime": 15,
            "district": "ATAŞEHİR",
            "isOpen": false
        },
        {
            "parkId": "3212",
            "parkName": "Ataşehir Defne Sokak 3",
            "lat": "40.9808",
            "lng": "29.1037",
            "capacity": 44,
            "emptyCapacity": 17,
            "workHours": "06:45-16:00",
            "parkType": "YOL ÜSTÜ",
            "freeTime": 15,
            "district": "ATAŞEHİR",
            "isOpen": false
        },
        {
            "parkId": "3214",
            "parkName": "Ataşehir Defne Sokak 5",
            "lat": "40.9813",
            "lng": "29.1027",
            "capacity": 44,
            "emptyCapacity": 16,
            "workHours": "06:45-16:00",
            "parkType": "YOL ÜSTÜ",
            "freeTime": 15,
            "district": "ATAŞEHİR",
            "isOpen": false
        },
        {
            "parkId": "3139",
            "parkName": "Ataşehir Fesleğen Sokak",
            "lat": "40.9909",
            "lng": "29.109",
            "capacity": 95,
            "emptyCapacity": 95,
            "workHours": "08:00-17:00",
            "parkType": "YOL ÜSTÜ",
            "freeTime": 15,
            "district": "ATAŞEHİR",
            "isOpen": false
        },
        {
            "parkId": "3125",
            "parkName": "Ataşehir Feza Sokak 1",
            "lat": "40.994",
            "lng": "29.1258",
            "capacity": 36,
            "emptyCapacity": 23,
            "workHours": "08:00-19:00",
            "parkType": "YOL ÜSTÜ",
            "freeTime": 15,
            "district": "ATAŞEHİR",
            "isOpen": false
        },
        {
            "parkId": "3126",
            "parkName": "Ataşehir Feza Sokak 2",
            "lat": "40.9943",
            "lng": "29.1257",
            "capacity": 35,
            "emptyCapacity": 23,
            "workHours": "08:00-19:00",
            "parkType": "YOL ÜSTÜ",
            "freeTime": 15,
            "district": "ATAŞEHİR",
            "isOpen": false
        },
        {
            "parkId": "1886",
            "parkName": "Ataşehir Halk Caddesi-Palladıum AVM 1",
            "lat": "40.9858",
            "lng": "29.099",
            "capacity": 40,
            "emptyCapacity": 38,
            "workHours": "08:30-18:00",
            "parkType": "YOL ÜSTÜ",
            "freeTime": 15,
            "district": "ATAŞEHİR",
            "isOpen": false
        },
        {
            "parkId": "1928",
            "parkName": "Ataşehir Ihlamur Sokak 1",
            "lat": "40.9903",
            "lng": "29.1054",
            "capacity": 56,
            "emptyCapacity": 51,
            "workHours": "08:00-17:00",
            "parkType": "YOL ÜSTÜ",
            "freeTime": 15,
            "district": "ATAŞEHİR",
            "isOpen": false
        },
        {
            "parkId": "3148",
            "parkName": "Ataşehir Işıklar Caddesi",
            "lat": "40.9846",
            "lng": "29.1119",
            "capacity": 50,
            "emptyCapacity": 50,
            "workHours": "08:00-18:00",
            "parkType": "YOL ÜSTÜ",
            "freeTime": 15,
            "district": "ATAŞEHİR",
            "isOpen": false
        },
        {
            "parkId": "3160",
            "parkName": "Ataşehir Işıklar Caddesi 2",
            "lat": "40.9851",
            "lng": "29.1088",
            "capacity": 50,
            "emptyCapacity": 0,
            "workHours": "08:00-18:00",
            "parkType": "YOL ÜSTÜ",
            "freeTime": 0,
            "district": "ATAŞEHİR",
            "isOpen": false
        },
        {
            "parkId": "3146",
            "parkName": "Ataşehir Mor Sümbül Sokak",
            "lat": "40.9952",
            "lng": "29.1006",
            "capacity": 76,
            "emptyCapacity": 76,
            "workHours": "07:30-17:00",
            "parkType": "YOL ÜSTÜ",
            "freeTime": 15,
            "district": "ATAŞEHİR",
            "isOpen": false
        },
        {
            "parkId": "3145",
            "parkName": "Ataşehir Şebboy Sokak",
            "lat": "40.9985",
            "lng": "29.1004",
            "capacity": 80,
            "emptyCapacity": 80,
            "workHours": "08:00-17:00",
            "parkType": "YOL ÜSTÜ",
            "freeTime": 15,
            "district": "ATAŞEHİR",
            "isOpen": false
        },
        {
            "parkId": "3161",
            "parkName": "Ataşehir Topçu İbrahim Sokak",
            "lat": "40.9736",
            "lng": "29.1011",
            "capacity": 42,
            "emptyCapacity": 27,
            "workHours": "07:00-17:00",
            "parkType": "YOL ÜSTÜ",
            "freeTime": 15,
            "district": "ATAŞEHİR",
            "isOpen": false
        },
        {
            "parkId": "3163",
            "parkName": "Ataşehir Turgut Özal Bulvarı",
            "lat": "40.9929",
            "lng": "29.1223",
            "capacity": 55,
            "emptyCapacity": 55,
            "workHours": "08:00-19:00",
            "parkType": "YOL ÜSTÜ",
            "freeTime": 15,
            "district": "ATAŞEHİR",
            "isOpen": false
        },
        {
            "parkId": "2886",
            "parkName": "Ataşehir Umut Sokak Açık Otoparkı",
            "lat": "40.972",
            "lng": "29.1014",
            "capacity": 70,
            "emptyCapacity": 70,
            "workHours": "08:00-18:00",
            "parkType": "AÇIK OTOPARK",
            "freeTime": 0,
            "district": "ATAŞEHİR",
            "isOpen": false
        },
        {
            "parkId": "360",
            "parkName": "Atatürk Bulvarı",
            "lat": "41.0123",
            "lng": "28.9535",
            "capacity": 50,
            "emptyCapacity": 26,
            "workHours": "07:00-18:00",
            "parkType": "YOL ÜSTÜ",
            "freeTime": 0,
            "district": "FATİH",
            "isOpen": false
        },
        {
            "parkId": "359",
            "parkName": "Atatürk Bulvarı 1",
            "lat": "41.0113",
            "lng": "28.9535",
            "capacity": 18,
            "emptyCapacity": 18,
            "workHours": "07:30-18:00",
            "parkType": "YOL ÜSTÜ",
            "freeTime": 0,
            "district": "FATİH",
            "isOpen": false
        },
        {
            "parkId": "1068",
            "parkName": "Atatürk Caddesi 3",
            "lat": "41.0735",
            "lng": "28.2436",
            "capacity": 50,
            "emptyCapacity": 37,
            "workHours": "09:00-20:00",
            "parkType": "YOL ÜSTÜ",
            "freeTime": 15,
            "district": "SİLİVRİ",
            "isOpen": true
        },
        {
            "parkId": "1069",
            "parkName": "Atatürk Caddesi 4",
            "lat": "41.0732",
            "lng": "28.2437",
            "capacity": 60,
            "emptyCapacity": 47,
            "workHours": "09:00-20:00",
            "parkType": "YOL ÜSTÜ",
            "freeTime": 15,
            "district": "SİLİVRİ",
            "isOpen": true
        },
        {
            "parkId": "1070",
            "parkName": "Atatürk Caddesi 5",
            "lat": "41.0729",
            "lng": "28.2438",
            "capacity": 90,
            "emptyCapacity": 85,
            "workHours": "09:00-20:00",
            "parkType": "YOL ÜSTÜ",
            "freeTime": 15,
            "district": "SİLİVRİ",
            "isOpen": true
        },
        {
            "parkId": "1071",
            "parkName": "Atatürk Caddesi 6",
            "lat": "41.0721",
            "lng": "28.2435",
            "capacity": 50,
            "emptyCapacity": 34,
            "workHours": "09:00-20:00",
            "parkType": "YOL ÜSTÜ",
            "freeTime": 15,
            "district": "SİLİVRİ",
            "isOpen": true
        },
        {
            "parkId": "3009",
            "parkName": "Atatürk Kent Ormanı Otoparkı",
            "lat": "41.1366",
            "lng": "29.026",
            "capacity": 200,
            "emptyCapacity": 200,
            "workHours": "08:00-18:00",
            "parkType": "AÇIK OTOPARK",
            "freeTime": 0,
            "district": "SARIYER",
            "isOpen": false
        },
        {
            "parkId": "2243",
            "parkName": "Avcılar Denizköşkler Toplantı ve Davet Salonu Açık Otoparkı",
            "lat": "40.9746",
            "lng": "28.7434",
            "capacity": 200,
            "emptyCapacity": 145,
            "workHours": "24 Saat",
            "parkType": "AÇIK OTOPARK",
            "freeTime": 15,
            "district": "AVCILAR",
            "isOpen": true
        },
        {
            "parkId": "1088",
            "parkName": "Avcılar İdo",
            "lat": "40.9712",
            "lng": "28.7185",
            "capacity": 270,
            "emptyCapacity": 269,
            "workHours": "08:00-00:00",
            "parkType": "AÇIK OTOPARK",
            "freeTime": 0,
            "district": "AVCILAR",
            "isOpen": true
        },
        {
            "parkId": "2318",
            "parkName": "Avni Akyol Bulvarı 1",
            "lat": "41.0723",
            "lng": "28.6896",
            "capacity": 25,
            "emptyCapacity": 25,
            "workHours": "09:00-19:00",
            "parkType": "YOL ÜSTÜ",
            "freeTime": 15,
            "district": "BAŞAKŞEHİR",
            "isOpen": false
        },
        {
            "parkId": "2320",
            "parkName": "Avni Akyol Bulvarı 3",
            "lat": "41.0718",
            "lng": "28.689",
            "capacity": 25,
            "emptyCapacity": 21,
            "workHours": "09:00-19:00",
            "parkType": "YOL ÜSTÜ",
            "freeTime": 15,
            "district": "BAŞAKŞEHİR",
            "isOpen": false
        },
        {
            "parkId": "2321",
            "parkName": "Avni Akyol Bulvarı 4",
            "lat": "41.0715",
            "lng": "28.6887",
            "capacity": 30,
            "emptyCapacity": 26,
            "workHours": "09:00-19:00",
            "parkType": "YOL ÜSTÜ",
            "freeTime": 15,
            "district": "BAŞAKŞEHİR",
            "isOpen": false
        },
        {
            "parkId": "2885",
            "parkName": "Azapkapı Haliç Metro Otoparkı",
            "lat": "41.0242",
            "lng": "28.9687",
            "capacity": 130,
            "emptyCapacity": 62,
            "workHours": "24 Saat",
            "parkType": "AÇIK OTOPARK",
            "freeTime": 5,
            "district": "ŞİŞLİ",
            "isOpen": true
        },
        {
            "parkId": "2455",
            "parkName": "Azerbaycan Dostluk Parkı Zemin Altı Otoparkı",
            "lat": "41.0443",
            "lng": "28.854",
            "capacity": 400,
            "emptyCapacity": 104,
            "workHours": "24 Saat",
            "parkType": "KAPALI OTOPARK",
            "freeTime": 10,
            "district": "BAĞCILAR",
            "isOpen": true
        },
        {
            "parkId": "2965",
            "parkName": "Bağcılar Çolakoğlu Zemin Altı Otoparkı",
            "lat": "41.0329",
            "lng": "28.8347",
            "capacity": 106,
            "emptyCapacity": 33,
            "workHours": "24 Saat",
            "parkType": "KAPALI OTOPARK",
            "freeTime": 5,
            "district": "BAĞCILAR",
            "isOpen": true
        },
        {
            "parkId": "2576",
            "parkName": "Bağcılar Demirkapı Zemin Altı Otoparkı",
            "lat": "41.0501",
            "lng": "28.8327",
            "capacity": 343,
            "emptyCapacity": 0,
            "workHours": "24 Saat",
            "parkType": "KAPALI OTOPARK",
            "freeTime": 5,
            "district": "BAĞCILAR",
            "isOpen": true
        },
        {
            "parkId": "3036",
            "parkName": "Bağcılar Devlet Hastanesi Yanı Zeminaltı Otoparkı",
            "lat": "41.0326",
            "lng": "28.8715",
            "capacity": 1133,
            "emptyCapacity": 696,
            "workHours": "24 Saat",
            "parkType": "KAPALI OTOPARK",
            "freeTime": 15,
            "district": "BAĞCILAR",
            "isOpen": true
        },
        {
            "parkId": "3071",
            "parkName": "Bağcılar Emniyet Müdürlüğü Yanı Açık Otoparkı",
            "lat": "41.0354",
            "lng": "28.8597",
            "capacity": 100,
            "emptyCapacity": 0,
            "workHours": "24 Saat",
            "parkType": "AÇIK OTOPARK",
            "freeTime": 0,
            "district": "BAĞCILAR",
            "isOpen": true
        },
        {
            "parkId": "2873",
            "parkName": "Bağcılar Göztepe Zemin Altı",
            "lat": "41.0565",
            "lng": "28.8353",
            "capacity": 120,
            "emptyCapacity": 0,
            "workHours": "24 Saat",
            "parkType": "KAPALI OTOPARK",
            "freeTime": 5,
            "district": "BAĞCILAR",
            "isOpen": true
        },
        {
            "parkId": "2426",
            "parkName": "Bağcılar Halk Sarayı Yanı Açık Otoparkı",
            "lat": "41.0417",
            "lng": "28.8356",
            "capacity": 145,
            "emptyCapacity": 144,
            "workHours": "08:00-22:00",
            "parkType": "AÇIK OTOPARK",
            "freeTime": 0,
            "district": "BAĞCILAR",
            "isOpen": true
        },
        {
            "parkId": "3187",
            "parkName": "Bağcılar Hürriyet Mahallesi Zemin Altı Otoparkı",
            "lat": "41.0294",
            "lng": "28.8328",
            "capacity": 355,
            "emptyCapacity": 178,
            "workHours": "24 Saat",
            "parkType": "KAPALI OTOPARK",
            "freeTime": 0,
            "district": "BAĞCILAR",
            "isOpen": true
        },
        {
            "parkId": "2916",
            "parkName": "Bağcılar Kent Meydanı Zemin Altı",
            "lat": "41.034",
            "lng": "28.8557",
            "capacity": 1162,
            "emptyCapacity": 0,
            "workHours": "24 Saat",
            "parkType": "KAPALI OTOPARK",
            "freeTime": 0,
            "district": "BAĞCILAR",
            "isOpen": true
        },
        {
            "parkId": "2820",
            "parkName": "Bağcılar Yıldıztepe Katlı Otoparkı",
            "lat": "41.0295",
            "lng": "28.8559",
            "capacity": 350,
            "emptyCapacity": 61,
            "workHours": "24 Saat",
            "parkType": "KAPALI OTOPARK",
            "freeTime": 10,
            "district": "BAĞCILAR",
            "isOpen": true
        },
        {
            "parkId": "191",
            "parkName": "Bağlantı Yolu 1",
            "lat": "41.0811",
            "lng": "29.0116",
            "capacity": 79,
            "emptyCapacity": 79,
            "workHours": "07:00-17:00",
            "parkType": "YOL ÜSTÜ",
            "freeTime": 15,
            "district": "BEŞİKTAŞ",
            "isOpen": false
        },
        {
            "parkId": "192",
            "parkName": "Bağlantı Yolu 2",
            "lat": "41.0802",
            "lng": "29.0125",
            "capacity": 78,
            "emptyCapacity": 78,
            "workHours": "07:00-17:00",
            "parkType": "YOL ÜSTÜ",
            "freeTime": 15,
            "district": "BEŞİKTAŞ",
            "isOpen": false
        },
        {
            "parkId": "2993",
            "parkName": "Bahçelievler Cumhuriyet Zeminaltı Otoparkı",
            "lat": "41.0153",
            "lng": "28.8582",
            "capacity": 663,
            "emptyCapacity": 0,
            "workHours": "24 Saat",
            "parkType": "KAPALI OTOPARK",
            "freeTime": 10,
            "district": "BAHÇELİEVLER",
            "isOpen": true
        },
        {
            "parkId": "2969",
            "parkName": "Bahçelievler Devlet Hastanesi Yanı Katlı Otoparkı",
            "lat": "41.0072",
            "lng": "28.844",
            "capacity": 740,
            "emptyCapacity": 243,
            "workHours": "24 Saat",
            "parkType": "KAPALI OTOPARK",
            "freeTime": 0,
            "district": "BAHÇELİEVLER",
            "isOpen": true
        },
        {
            "parkId": "3051",
            "parkName": "Bahçelievler Zafer Mh. Zeminaltı Otoparkı",
            "lat": "41.0039",
            "lng": "28.8352",
            "capacity": 200,
            "emptyCapacity": 60,
            "workHours": "24 Saat",
            "parkType": "KAPALI OTOPARK",
            "freeTime": 0,
            "district": "BAHÇELİEVLER",
            "isOpen": true
        },
        {
            "parkId": "2346",
            "parkName": "Bahçeşehir Doğa Parkı Caddesi 1",
            "lat": "41.0673",
            "lng": "28.6912",
            "capacity": 22,
            "emptyCapacity": 12,
            "workHours": "09:00-21:00",
            "parkType": "YOL ÜSTÜ",
            "freeTime": 15,
            "district": "BAŞAKŞEHİR",
            "isOpen": true
        },
        {
            "parkId": "2329",
            "parkName": "Bahçeşehir Gölet Açık Otoparkı",
            "lat": "41.072",
            "lng": "28.6902",
            "capacity": 200,
            "emptyCapacity": 172,
            "workHours": "10:00-22:00",
            "parkType": "AÇIK OTOPARK",
            "freeTime": 0,
            "district": "BAŞAKŞEHİR",
            "isOpen": true
        },
        {
            "parkId": "1079",
            "parkName": "Bakırköy Açık Otoparkı 1",
            "lat": "40.9834",
            "lng": "28.8756",
            "capacity": 40,
            "emptyCapacity": 13,
            "workHours": "24 Saat",
            "parkType": "AÇIK OTOPARK",
            "freeTime": 5,
            "district": "BAKIRKÖY",
            "isOpen": true
        },
        {
            "parkId": "1465",
            "parkName": "Bakırköy İdo Açık Otoparkı",
            "lat": "40.9739",
            "lng": "28.8761",
            "capacity": 1000,
            "emptyCapacity": 925,
            "workHours": "24 Saat",
            "parkType": "AÇIK OTOPARK",
            "freeTime": 10,
            "district": "BAKIRKÖY",
            "isOpen": true
        },
        {
            "parkId": "2997",
            "parkName": "Bakırköy Sahil Cep Otoparkı",
            "lat": "40.9748",
            "lng": "28.8782",
            "capacity": 40,
            "emptyCapacity": 28,
            "workHours": "07:00-23:00",
            "parkType": "YOL ÜSTÜ",
            "freeTime": 15,
            "district": "BAKIRKÖY",
            "isOpen": true
        },
        {
            "parkId": "1938",
            "parkName": "Bakırköy Sahil Cep Otoparkı 2",
            "lat": "40.9793",
            "lng": "28.8873",
            "capacity": 50,
            "emptyCapacity": 41,
            "workHours": "07:00-23:00",
            "parkType": "YOL ÜSTÜ",
            "freeTime": 15,
            "district": "BAKIRKÖY",
            "isOpen": true
        },
        {
            "parkId": "1146",
            "parkName": "Balmumcu Açık",
            "lat": "41.062",
            "lng": "29.0107",
            "capacity": 140,
            "emptyCapacity": 113,
            "workHours": "07:00-23:00",
            "parkType": "AÇIK OTOPARK",
            "freeTime": 5,
            "district": "BEŞİKTAŞ",
            "isOpen": true
        },
        {
            "parkId": "1104",
            "parkName": "Balmumcu Katlı Otoparkı",
            "lat": "41.0635",
            "lng": "29.011",
            "capacity": 400,
            "emptyCapacity": 392,
            "workHours": "24 Saat",
            "parkType": "KAPALI OTOPARK",
            "freeTime": 5,
            "district": "BEŞİKTAŞ",
            "isOpen": true
        },
        {
            "parkId": "2796",
            "parkName": "Başakşehir Metro P+R",
            "lat": "41.1074",
            "lng": "28.8009",
            "capacity": 125,
            "emptyCapacity": 97,
            "workHours": "07:00-17:00",
            "parkType": "AÇIK OTOPARK",
            "freeTime": 0,
            "district": "BAŞAKŞEHİR",
            "isOpen": false
        },
        {
            "parkId": "759",
            "parkName": "Başkomutan Caddesi 1",
            "lat": "41.0748",
            "lng": "28.2444",
            "capacity": 30,
            "emptyCapacity": 30,
            "workHours": "09:00-17:00",
            "parkType": "YOL ÜSTÜ",
            "freeTime": 15,
            "district": "SİLİVRİ",
            "isOpen": false
        },
        {
            "parkId": "760",
            "parkName": "Başkomutan Caddesi 2",
            "lat": "41.0741",
            "lng": "28.2459",
            "capacity": 100,
            "emptyCapacity": 100,
            "workHours": "09:00-17:00",
            "parkType": "YOL ÜSTÜ",
            "freeTime": 15,
            "district": "SİLİVRİ",
            "isOpen": false
        },
        {
            "parkId": "761",
            "parkName": "Başkomutan Caddesi 3",
            "lat": "41.0739",
            "lng": "28.2462",
            "capacity": 60,
            "emptyCapacity": 60,
            "workHours": "09:00-17:00",
            "parkType": "YOL ÜSTÜ",
            "freeTime": 15,
            "district": "SİLİVRİ",
            "isOpen": false
        },
        {
            "parkId": "762",
            "parkName": "Başkomutan Caddesi 4",
            "lat": "41.0738",
            "lng": "28.2472",
            "capacity": 30,
            "emptyCapacity": 18,
            "workHours": "09:00-17:00",
            "parkType": "YOL ÜSTÜ",
            "freeTime": 15,
            "district": "SİLİVRİ",
            "isOpen": false
        },
        {
            "parkId": "900",
            "parkName": "Bayrampaşa Abdi İpekçi Caddesi 2",
            "lat": "41.0368",
            "lng": "28.9121",
            "capacity": 30,
            "emptyCapacity": 23,
            "workHours": "08:30-17:30",
            "parkType": "YOL ÜSTÜ",
            "freeTime": 15,
            "district": "BAYRAMPAŞA",
            "isOpen": false
        },
        {
            "parkId": "903",
            "parkName": "Bayrampaşa Abdi İpekçi Caddesi 5",
            "lat": "41.0343",
            "lng": "28.9119",
            "capacity": 30,
            "emptyCapacity": 24,
            "workHours": "08:30-17:30",
            "parkType": "YOL ÜSTÜ",
            "freeTime": 15,
            "district": "BAYRAMPAŞA",
            "isOpen": false
        },
        {
            "parkId": "2350",
            "parkName": "Bayrampaşa Adapark Katlı Otoparkı",
            "lat": "41.0641",
            "lng": "28.8872",
            "capacity": 650,
            "emptyCapacity": 0,
            "workHours": "24 Saat",
            "parkType": "KAPALI OTOPARK",
            "freeTime": 15,
            "district": "BAYRAMPAŞA",
            "isOpen": true
        },
        {
            "parkId": "2892",
            "parkName": "Bayrampaşa Altıntepsi Zemin  Altı Otoparkı",
            "lat": "41.0389",
            "lng": "28.9025",
            "capacity": 110,
            "emptyCapacity": 0,
            "workHours": "24 Saat",
            "parkType": "KAPALI OTOPARK",
            "freeTime": 10,
            "district": "BAYRAMPAŞA",
            "isOpen": true
        },
        {
            "parkId": "2909",
            "parkName": "Bayrampaşa Atatürk Parkı  Zemin Altı Otoparkı",
            "lat": "41.0336",
            "lng": "28.9131",
            "capacity": 442,
            "emptyCapacity": 125,
            "workHours": "24 Saat",
            "parkType": "KAPALI OTOPARK",
            "freeTime": 10,
            "district": "BAYRAMPAŞA",
            "isOpen": true
        },
        {
            "parkId": "2403",
            "parkName": "Bayrampaşa Devlet Hastanesi Cep Otoparkı 1",
            "lat": "41.0415",
            "lng": "28.9032",
            "capacity": 55,
            "emptyCapacity": 51,
            "workHours": "08:00-18:00",
            "parkType": "AÇIK OTOPARK",
            "freeTime": 15,
            "district": "BAYRAMPAŞA",
            "isOpen": false
        },
        {
            "parkId": "2053",
            "parkName": "Bayrampaşa Muratpaşa Yer Altı Otoparkı",
            "lat": "41.047",
            "lng": "28.9082",
            "capacity": 300,
            "emptyCapacity": 35,
            "workHours": "24 Saat",
            "parkType": "KAPALI OTOPARK",
            "freeTime": 15,
            "district": "BAYRAMPAŞA",
            "isOpen": true
        },
        {
            "parkId": "2581",
            "parkName": "Bayrampaşa Muzaffer Öztekin Zemin Altı Otoparkı",
            "lat": "41.0511",
            "lng": "28.9068",
            "capacity": 400,
            "emptyCapacity": 163,
            "workHours": "24 Saat",
            "parkType": "KAPALI OTOPARK",
            "freeTime": 15,
            "district": "BAYRAMPAŞA",
            "isOpen": true
        },
        {
            "parkId": "2034",
            "parkName": "Bayrampaşa Nikah Dairesi Otoparkı",
            "lat": "41.0432",
            "lng": "28.913",
            "capacity": 190,
            "emptyCapacity": 174,
            "workHours": "24 Saat",
            "parkType": "KAPALI OTOPARK",
            "freeTime": 10,
            "district": "BAYRAMPAŞA",
            "isOpen": true
        },
        {
            "parkId": "891",
            "parkName": "Bayrampaşa Numunebağı Caddesi 3",
            "lat": "41.032",
            "lng": "28.9144",
            "capacity": 50,
            "emptyCapacity": 48,
            "workHours": "08:30-17:30",
            "parkType": "YOL ÜSTÜ",
            "freeTime": 15,
            "district": "BAYRAMPAŞA",
            "isOpen": false
        },
        {
            "parkId": "2448",
            "parkName": "Bayrampaşa Sebze-Meyve Hali",
            "lat": "41.051",
            "lng": "28.8887",
            "capacity": 100,
            "emptyCapacity": 100,
            "workHours": "24 Saat",
            "parkType": "AÇIK OTOPARK",
            "freeTime": 0,
            "district": "BAYRAMPAŞA",
            "isOpen": true
        },
        {
            "parkId": "3175",
            "parkName": "Bayrampaşa Spor Kompleksi Zemin Altı Otoparkı",
            "lat": "41.0445",
            "lng": "28.9109",
            "capacity": 205,
            "emptyCapacity": 0,
            "workHours": "24 Saat",
            "parkType": "KAPALI OTOPARK",
            "freeTime": 15,
            "district": "BAYRAMPAŞA",
            "isOpen": true
        },
        {
            "parkId": "2428",
            "parkName": "Bayrampaşa Yenidoğan Mahallesi Zemin Altı Otoparkı",
            "lat": "41.0395",
            "lng": "28.9088",
            "capacity": 120,
            "emptyCapacity": 12,
            "workHours": "24 Saat",
            "parkType": "KAPALI OTOPARK",
            "freeTime": 10,
            "district": "BAYRAMPAŞA",
            "isOpen": true
        },
        {
            "parkId": "2468",
            "parkName": "Bebek Açık",
            "lat": "41.077",
            "lng": "29.0434",
            "capacity": 30,
            "emptyCapacity": 0,
            "workHours": "24 Saat",
            "parkType": "AÇIK OTOPARK",
            "freeTime": 0,
            "district": "BEŞİKTAŞ",
            "isOpen": true
        },
        {
            "parkId": "1818",
            "parkName": "Bebek Sahil 1",
            "lat": "41.0703",
            "lng": "29.0457",
            "capacity": 29,
            "emptyCapacity": 0,
            "workHours": "08:00-23:00",
            "parkType": "YOL ÜSTÜ",
            "freeTime": 15,
            "district": "BEŞİKTAŞ",
            "isOpen": true
        },
        {
            "parkId": "339",
            "parkName": "Bebek Sahil 2",
            "lat": "41.0725",
            "lng": "29.0448",
            "capacity": 21,
            "emptyCapacity": 7,
            "workHours": "08:00-23:00",
            "parkType": "YOL ÜSTÜ",
            "freeTime": 15,
            "district": "BEŞİKTAŞ",
            "isOpen": true
        },
        {
            "parkId": "2782",
            "parkName": "Bebek Sahil 3",
            "lat": "41.0756",
            "lng": "29.0432",
            "capacity": 20,
            "emptyCapacity": 0,
            "workHours": "08:00-23:00",
            "parkType": "YOL ÜSTÜ",
            "freeTime": 15,
            "district": "BEŞİKTAŞ",
            "isOpen": true
        },
        {
            "parkId": "343",
            "parkName": "Bebek Sahil 4",
            "lat": "41.0796",
            "lng": "29.0494",
            "capacity": 18,
            "emptyCapacity": 1,
            "workHours": "08:00-23:00",
            "parkType": "YOL ÜSTÜ",
            "freeTime": 15,
            "district": "BEŞİKTAŞ",
            "isOpen": true
        },
        {
            "parkId": "337",
            "parkName": "Bebek Sahil 5",
            "lat": "41.0803",
            "lng": "29.0528",
            "capacity": 20,
            "emptyCapacity": 20,
            "workHours": "08:00-23:00",
            "parkType": "YOL ÜSTÜ",
            "freeTime": 15,
            "district": "BEŞİKTAŞ",
            "isOpen": true
        },
        {
            "parkId": "338",
            "parkName": "Bebek Sahil 6",
            "lat": "41.0809",
            "lng": "29.054",
            "capacity": 16,
            "emptyCapacity": 3,
            "workHours": "08:00-23:00",
            "parkType": "YOL ÜSTÜ",
            "freeTime": 15,
            "district": "BEŞİKTAŞ",
            "isOpen": true
        },
        {
            "parkId": "1870",
            "parkName": "Belgrad Ormanı Bahçeköy Girişi Açık",
            "lat": "41.1836",
            "lng": "28.9889",
            "capacity": 5000,
            "emptyCapacity": 4999,
            "workHours": "06:00-20:00",
            "parkType": "AÇIK OTOPARK",
            "freeTime": 0,
            "district": "SARIYER",
            "isOpen": true
        },
        {
            "parkId": "2814",
            "parkName": "Belgrad Ormanı Kurt Kemeri Girişi Otoparkı",
            "lat": "41.1968",
            "lng": "28.9197",
            "capacity": 5000,
            "emptyCapacity": 4999,
            "workHours": "06:00-20:00",
            "parkType": "AÇIK OTOPARK",
            "freeTime": 0,
            "district": "EYÜP",
            "isOpen": true
        },
        {
            "parkId": "1945",
            "parkName": "Beşiktaş Emirhan Caddesi 5",
            "lat": "41.0571",
            "lng": "29.0081",
            "capacity": 80,
            "emptyCapacity": 72,
            "workHours": "07:00-18:00",
            "parkType": "YOL ÜSTÜ",
            "freeTime": 15,
            "district": "BEŞİKTAŞ",
            "isOpen": false
        },
        {
            "parkId": "1441",
            "parkName": "Beşiktaş Halk Pazarı 2",
            "lat": "41.0497",
            "lng": "29.0005",
            "capacity": 200,
            "emptyCapacity": 146,
            "workHours": "24 Saat",
            "parkType": "KAPALI OTOPARK",
            "freeTime": 15,
            "district": "BEŞİKTAŞ",
            "isOpen": true
        },
        {
            "parkId": "573",
            "parkName": "Beşiktaş Kadastro Önü 1",
            "lat": "41.0503",
            "lng": "29.0077",
            "capacity": 20,
            "emptyCapacity": 10,
            "workHours": "08:00-17:00",
            "parkType": "YOL ÜSTÜ",
            "freeTime": 15,
            "district": "BEŞİKTAŞ",
            "isOpen": false
        },
        {
            "parkId": "2201",
            "parkName": "Beykoz Pazar Yeri Açık Otoparkı",
            "lat": "41.14",
            "lng": "29.0859",
            "capacity": 1000,
            "emptyCapacity": 1000,
            "workHours": "09:00-18:00",
            "parkType": "AÇIK OTOPARK",
            "freeTime": 0,
            "district": "BEYKOZ",
            "isOpen": false
        },
        {
            "parkId": "2977",
            "parkName": "Beykoz Sahil Cep Otoparkı",
            "lat": "41.1294",
            "lng": "29.0948",
            "capacity": 100,
            "emptyCapacity": 14,
            "workHours": "08:00-00:00",
            "parkType": "AÇIK OTOPARK",
            "freeTime": 0,
            "district": "BEYKOZ",
            "isOpen": true
        },
        {
            "parkId": "2273",
            "parkName": "Beykoz Sosyal Tesisleri 2",
            "lat": "41.1136",
            "lng": "29.0869",
            "capacity": 130,
            "emptyCapacity": 0,
            "workHours": "08:00-00:00",
            "parkType": "AÇIK OTOPARK",
            "freeTime": 30,
            "district": "BEYKOZ",
            "isOpen": true
        },
        {
            "parkId": "559",
            "parkName": "Beykoz Yalıköy 1",
            "lat": "41.1355",
            "lng": "29.0886",
            "capacity": 26,
            "emptyCapacity": 8,
            "workHours": "08:00-18:00",
            "parkType": "YOL ÜSTÜ",
            "freeTime": 15,
            "district": "BEYKOZ",
            "isOpen": false
        },
        {
            "parkId": "2454",
            "parkName": "Beylikdüzü Atatürk Bulvarı Açık Otoparkı",
            "lat": "41.0137",
            "lng": "28.6453",
            "capacity": 70,
            "emptyCapacity": 44,
            "workHours": "08:00-00:00",
            "parkType": "AÇIK OTOPARK",
            "freeTime": 15,
            "district": "BEYLİKDÜZÜ",
            "isOpen": true
        },
        {
            "parkId": "2998",
            "parkName": "Beyoğlu Gazhane Bostan Sokak 1",
            "lat": "41.0388",
            "lng": "28.9901",
            "capacity": 35,
            "emptyCapacity": 30,
            "workHours": "08:00-18:00",
            "parkType": "YOL ÜSTÜ",
            "freeTime": 0,
            "district": "BEYOĞLU",
            "isOpen": false
        },
        {
            "parkId": "2999",
            "parkName": "Beyoğlu Gazhane Bostan Sokak 2",
            "lat": "41.0383",
            "lng": "28.9894",
            "capacity": 35,
            "emptyCapacity": 24,
            "workHours": "08:00-18:00",
            "parkType": "YOL ÜSTÜ",
            "freeTime": 0,
            "district": "BEYOĞLU",
            "isOpen": false
        },
        {
            "parkId": "12",
            "parkName": "Beyoğlu İnönü Caddesi 2",
            "lat": "41.0371",
            "lng": "28.9918",
            "capacity": 30,
            "emptyCapacity": 4,
            "workHours": "07:30-19:30",
            "parkType": "YOL ÜSTÜ",
            "freeTime": 15,
            "district": "BEYOĞLU",
            "isOpen": true
        },
        {
            "parkId": "16",
            "parkName": "Beyoğlu İnönü Caddesi 3",
            "lat": "41.0361",
            "lng": "28.9895",
            "capacity": 30,
            "emptyCapacity": 30,
            "workHours": "07:30-19:30",
            "parkType": "YOL ÜSTÜ",
            "freeTime": 15,
            "district": "BEYOĞLU",
            "isOpen": true
        },
        {
            "parkId": "14",
            "parkName": "Beyoğlu İnönü Caddesi 5",
            "lat": "41.036",
            "lng": "28.9873",
            "capacity": 30,
            "emptyCapacity": 30,
            "workHours": "07:30-19:30",
            "parkType": "YOL ÜSTÜ",
            "freeTime": 15,
            "district": "BEYOĞLU",
            "isOpen": true
        },
        {
            "parkId": "3072",
            "parkName": "Beyoğlu Örnektepe Zemin Altı Otoparkı",
            "lat": "41.0543",
            "lng": "28.9549",
            "capacity": 143,
            "emptyCapacity": 0,
            "workHours": "24 Saat",
            "parkType": "KAPALI OTOPARK",
            "freeTime": 0,
            "district": "BEYOĞLU",
            "isOpen": true
        },
        {
            "parkId": "2042",
            "parkName": "Beyoğlu Tepebaşı Katlı Otoparkı",
            "lat": "41.0319",
            "lng": "28.9744",
            "capacity": 1005,
            "emptyCapacity": 188,
            "workHours": "24 Saat",
            "parkType": "KAPALI OTOPARK",
            "freeTime": 0,
            "district": "BEYOĞLU",
            "isOpen": true
        },
        {
            "parkId": "2020",
            "parkName": "Biruni Üniversitesi Açık Otoparkı",
            "lat": "41.0043",
            "lng": "28.9202",
            "capacity": 150,
            "emptyCapacity": 150,
            "workHours": "08:00-18:00",
            "parkType": "AÇIK OTOPARK",
            "freeTime": 0,
            "district": "ZEYTİNBURNU",
            "isOpen": false
        },
        {
            "parkId": "1378",
            "parkName": "Bomanti Protestan Mezarlığı Yanı 1",
            "lat": "41.0547",
            "lng": "28.985",
            "capacity": 18,
            "emptyCapacity": 6,
            "workHours": "08:00-18:00",
            "parkType": "YOL ÜSTÜ",
            "freeTime": 15,
            "district": "ŞİŞLİ",
            "isOpen": false
        },
        {
            "parkId": "1554",
            "parkName": "Bomanti Protestan Mezarlığı Yanı 2",
            "lat": "41.0554",
            "lng": "28.9852",
            "capacity": 20,
            "emptyCapacity": 5,
            "workHours": "08:00-18:00",
            "parkType": "YOL ÜSTÜ",
            "freeTime": 15,
            "district": "ŞİŞLİ",
            "isOpen": false
        },
        {
            "parkId": "212",
            "parkName": "Bosna Bulvarı 2",
            "lat": "41.0248",
            "lng": "29.0847",
            "capacity": 30,
            "emptyCapacity": 20,
            "workHours": "08:00-18:00",
            "parkType": "YOL ÜSTÜ",
            "freeTime": 15,
            "district": "ÜMRANİYE",
            "isOpen": false
        },
        {
            "parkId": "214",
            "parkName": "Bosna Bulvarı 4",
            "lat": "41.0249",
            "lng": "29.0845",
            "capacity": 40,
            "emptyCapacity": 40,
            "workHours": "08:00-18:00",
            "parkType": "YOL ÜSTÜ",
            "freeTime": 15,
            "district": "ÜMRANİYE",
            "isOpen": false
        },
        {
            "parkId": "1455",
            "parkName": "Bostancı Açık",
            "lat": "40.9523",
            "lng": "29.0903",
            "capacity": 394,
            "emptyCapacity": 0,
            "workHours": "24 Saat",
            "parkType": "AÇIK OTOPARK",
            "freeTime": 15,
            "district": "KADIKÖY",
            "isOpen": true
        },
        {
            "parkId": "2178",
            "parkName": "Bostancı İdo Karşısı Açık Otopark 1",
            "lat": "40.9524",
            "lng": "29.0953",
            "capacity": 40,
            "emptyCapacity": 14,
            "workHours": "24 Saat",
            "parkType": "AÇIK OTOPARK",
            "freeTime": 15,
            "district": "KADIKÖY",
            "isOpen": true
        },
        {
            "parkId": "2368",
            "parkName": "Bostancı İdo Karşısı Açık Otopark 2",
            "lat": "40.9527",
            "lng": "29.0956",
            "capacity": 40,
            "emptyCapacity": 26,
            "workHours": "24 Saat",
            "parkType": "AÇIK OTOPARK",
            "freeTime": 15,
            "district": "KADIKÖY",
            "isOpen": true
        },
        {
            "parkId": "1456",
            "parkName": "Bostancı Sahil-Cep Açık Otoparkı",
            "lat": "40.9545",
            "lng": "29.0885",
            "capacity": 192,
            "emptyCapacity": 51,
            "workHours": "24 Saat",
            "parkType": "AÇIK OTOPARK",
            "freeTime": 15,
            "district": "KADIKÖY",
            "isOpen": true
        },
        {
            "parkId": "2150",
            "parkName": "Bostancı Vergi Dairesi Açık Otoparkı",
            "lat": "40.9625",
            "lng": "29.1081",
            "capacity": 155,
            "emptyCapacity": 0,
            "workHours": "08:00-20:00",
            "parkType": "AÇIK OTOPARK",
            "freeTime": 5,
            "district": "ATAŞEHİR",
            "isOpen": true
        },
        {
            "parkId": "2854",
            "parkName": "Bülent Ecevit Kültür Merkezi Açık Otoparkı",
            "lat": "40.8854",
            "lng": "29.197",
            "capacity": 277,
            "emptyCapacity": 0,
            "workHours": "09:00-20:00",
            "parkType": "AÇIK OTOPARK",
            "freeTime": 5,
            "district": "KARTAL",
            "isOpen": true
        },
        {
            "parkId": "1893",
            "parkName": "Büyük Karaman - Haydarbey Caddeleri 1",
            "lat": "41.0161",
            "lng": "28.9531",
            "capacity": 60,
            "emptyCapacity": 34,
            "workHours": "08:30-19:00",
            "parkType": "YOL ÜSTÜ",
            "freeTime": 15,
            "district": "FATİH",
            "isOpen": false
        },
        {
            "parkId": "1192",
            "parkName": "Büyükçamlıca Korusu Sosyal Tesisleri Önü",
            "lat": "41.0264",
            "lng": "29.0698",
            "capacity": 204,
            "emptyCapacity": 135,
            "workHours": "08:00-00:00",
            "parkType": "AÇIK OTOPARK",
            "freeTime": 0,
            "district": "ÜSKÜDAR",
            "isOpen": true
        },
        {
            "parkId": "2960",
            "parkName": "BüyükÇekmece Metrobüs Durağı Yanı Zemin Altı Otoparkı",
            "lat": "41.0221",
            "lng": "28.6241",
            "capacity": 448,
            "emptyCapacity": 292,
            "workHours": "24 Saat",
            "parkType": "KAPALI OTOPARK",
            "freeTime": 0,
            "district": "BÜYÜKÇEKMECE",
            "isOpen": true
        },
        {
            "parkId": "1503",
            "parkName": "Cadde Bostan Açık Otoparkı",
            "lat": "40.9637",
            "lng": "29.0675",
            "capacity": 66,
            "emptyCapacity": 1,
            "workHours": "24 Saat",
            "parkType": "AÇIK OTOPARK",
            "freeTime": 15,
            "district": "KADIKÖY",
            "isOpen": true
        },
        {
            "parkId": "2933",
            "parkName": "Cemal Kamacı Spor Kompleksi Zemin Altı Otoparkı",
            "lat": "41.0538",
            "lng": "28.9587",
            "capacity": 510,
            "emptyCapacity": 0,
            "workHours": "24 Saat",
            "parkType": "KAPALI OTOPARK",
            "freeTime": 0,
            "district": "KAĞITHANE",
            "isOpen": true
        },
        {
            "parkId": "2207",
            "parkName": "Cengiz Topel Yer Altı Katlı Otoparkı",
            "lat": "41.059",
            "lng": "28.8643",
            "capacity": 144,
            "emptyCapacity": 0,
            "workHours": "24 Saat",
            "parkType": "KAPALI OTOPARK",
            "freeTime": 15,
            "district": "ESENLER",
            "isOpen": true
        },
        {
            "parkId": "2787",
            "parkName": "Cevizli Açık Otoparkı",
            "lat": "40.9179",
            "lng": "29.1711",
            "capacity": 100,
            "emptyCapacity": 24,
            "workHours": "07:00-20:00",
            "parkType": "AÇIK OTOPARK",
            "freeTime": 15,
            "district": "KARTAL",
            "isOpen": true
        },
        {
            "parkId": "780",
            "parkName": "Cihangir Caddesi 1",
            "lat": "41.0322",
            "lng": "28.9859",
            "capacity": 60,
            "emptyCapacity": 31,
            "workHours": "09:00-21:00",
            "parkType": "YOL ÜSTÜ",
            "freeTime": 15,
            "district": "BEYOĞLU",
            "isOpen": true
        },
        {
            "parkId": "782",
            "parkName": "Cihangir Caddesi 2",
            "lat": "41.0319",
            "lng": "28.9861",
            "capacity": 70,
            "emptyCapacity": 32,
            "workHours": "09:00-21:00",
            "parkType": "YOL ÜSTÜ",
            "freeTime": 15,
            "district": "BEYOĞLU",
            "isOpen": true
        },
        {
            "parkId": "1467",
            "parkName": "Cihangir Katlı Otoparkı",
            "lat": "41.0318",
            "lng": "28.9858",
            "capacity": 350,
            "emptyCapacity": 0,
            "workHours": "24 Saat",
            "parkType": "KAPALI OTOPARK",
            "freeTime": 0,
            "district": "BEYOĞLU",
            "isOpen": true
        },
        {
            "parkId": "535",
            "parkName": "Cihannuma Yol Üstü 1",
            "lat": "41.0454",
            "lng": "29.0084",
            "capacity": 35,
            "emptyCapacity": 11,
            "workHours": "08:00-23:00",
            "parkType": "YOL ÜSTÜ",
            "freeTime": 0,
            "district": "BEŞİKTAŞ",
            "isOpen": true
        },
        {
            "parkId": "537",
            "parkName": "Cihannuma Yol Üstü 3",
            "lat": "41.0459",
            "lng": "29.0087",
            "capacity": 33,
            "emptyCapacity": 33,
            "workHours": "08:00-23:00",
            "parkType": "YOL ÜSTÜ",
            "freeTime": 0,
            "district": "BEŞİKTAŞ",
            "isOpen": true
        },
        {
            "parkId": "538",
            "parkName": "Cihannuma Yol Üstü 4",
            "lat": "41.0481",
            "lng": "29.0091",
            "capacity": 28,
            "emptyCapacity": 2,
            "workHours": "08:00-23:00",
            "parkType": "YOL ÜSTÜ",
            "freeTime": 0,
            "district": "BEŞİKTAŞ",
            "isOpen": true
        },
        {
            "parkId": "539",
            "parkName": "Cihannuma Yol Üstü 5",
            "lat": "41.0489",
            "lng": "29.0094",
            "capacity": 24,
            "emptyCapacity": 4,
            "workHours": "08:00-23:00",
            "parkType": "YOL ÜSTÜ",
            "freeTime": 0,
            "district": "BEŞİKTAŞ",
            "isOpen": true
        },
        {
            "parkId": "519",
            "parkName": "Çağlayan 2",
            "lat": "41.077",
            "lng": "28.9818",
            "capacity": 60,
            "emptyCapacity": 60,
            "workHours": "08:00-17:00",
            "parkType": "YOL ÜSTÜ",
            "freeTime": 15,
            "district": "KAĞITHANE",
            "isOpen": false
        },
        {
            "parkId": "3179",
            "parkName": "Çam Sokak 1",
            "lat": "41.0123",
            "lng": "28.8888",
            "capacity": 50,
            "emptyCapacity": 45,
            "workHours": "08:00-18:00",
            "parkType": "YOL ÜSTÜ",
            "freeTime": 15,
            "district": "GÜNGÖREN",
            "isOpen": false
        },
        {
            "parkId": "3180",
            "parkName": "Çam Sokak 2",
            "lat": "41.0124",
            "lng": "28.8886",
            "capacity": 50,
            "emptyCapacity": 45,
            "workHours": "08:00-18:00",
            "parkType": "YOL ÜSTÜ",
            "freeTime": 15,
            "district": "GÜNGÖREN",
            "isOpen": false
        },
        {
            "parkId": "3182",
            "parkName": "Çam Sokak 4",
            "lat": "41.0128",
            "lng": "28.8902",
            "capacity": 50,
            "emptyCapacity": 42,
            "workHours": "08:00-18:00",
            "parkType": "YOL ÜSTÜ",
            "freeTime": 15,
            "district": "GÜNGÖREN",
            "isOpen": false
        },
        {
            "parkId": "3183",
            "parkName": "Çam Sokak 5",
            "lat": "41.013",
            "lng": "28.8905",
            "capacity": 50,
            "emptyCapacity": 44,
            "workHours": "08:00-18:00",
            "parkType": "YOL ÜSTÜ",
            "freeTime": 15,
            "district": "GÜNGÖREN",
            "isOpen": false
        },
        {
            "parkId": "1772",
            "parkName": "Çapa Yol Üstü Otoparkı 1",
            "lat": "41.0167",
            "lng": "28.931",
            "capacity": 30,
            "emptyCapacity": 25,
            "workHours": "07:00-17:00",
            "parkType": "YOL ÜSTÜ",
            "freeTime": 15,
            "district": "FATİH",
            "isOpen": false
        },
        {
            "parkId": "342",
            "parkName": "Çarşı Çıkışı",
            "lat": "41.0664",
            "lng": "29.0417",
            "capacity": 14,
            "emptyCapacity": 0,
            "workHours": "08:00-23:00",
            "parkType": "YOL ÜSTÜ",
            "freeTime": 15,
            "district": "BEŞİKTAŞ",
            "isOpen": true
        },
        {
            "parkId": "2003",
            "parkName": "Çatalca İnceğiz Mesire Alanı",
            "lat": "41.1827",
            "lng": "28.4041",
            "capacity": 1000,
            "emptyCapacity": 986,
            "workHours": "06:00-21:00",
            "parkType": "AÇIK OTOPARK",
            "freeTime": 0,
            "district": "ÇATALCA",
            "isOpen": true
        },
        {
            "parkId": "494",
            "parkName": "Çatalçeşme 1",
            "lat": "41.0093",
            "lng": "28.9758",
            "capacity": 50,
            "emptyCapacity": 50,
            "workHours": "08:00-17:00",
            "parkType": "YOL ÜSTÜ",
            "freeTime": 0,
            "district": "FATİH",
            "isOpen": false
        },
        {
            "parkId": "765",
            "parkName": "Çay Bahçesi Yanı 1",
            "lat": "41.0736",
            "lng": "28.2436",
            "capacity": 60,
            "emptyCapacity": 46,
            "workHours": "09:00-20:00",
            "parkType": "YOL ÜSTÜ",
            "freeTime": 15,
            "district": "SİLİVRİ",
            "isOpen": true
        },
        {
            "parkId": "766",
            "parkName": "Çay Bahçesi Yanı 2",
            "lat": "41.0731",
            "lng": "28.2437",
            "capacity": 50,
            "emptyCapacity": 42,
            "workHours": "09:00-20:00",
            "parkType": "YOL ÜSTÜ",
            "freeTime": 15,
            "district": "SİLİVRİ",
            "isOpen": true
        },
        {
            "parkId": "1259",
            "parkName": "Çayır Çimen Sokak 1",
            "lat": "41.0792",
            "lng": "29.0133",
            "capacity": 30,
            "emptyCapacity": 23,
            "workHours": "08:00-19:00",
            "parkType": "YOL ÜSTÜ",
            "freeTime": 15,
            "district": "BEŞİKTAŞ",
            "isOpen": false
        },
        {
            "parkId": "2103",
            "parkName": "Çekmeköy Çavuşbaşı Caddesi 2",
            "lat": "41.0305",
            "lng": "29.1726",
            "capacity": 50,
            "emptyCapacity": 46,
            "workHours": "08:00-18:00",
            "parkType": "YOL ÜSTÜ",
            "freeTime": 15,
            "district": "ÇEKMEKÖY",
            "isOpen": false
        },
        {
            "parkId": "3030",
            "parkName": "Çekmeköy Metro Zeminaltı P+R Otoparkı",
            "lat": "41.0147",
            "lng": "29.1888",
            "capacity": 175,
            "emptyCapacity": 23,
            "workHours": "24 Saat",
            "parkType": "KAPALI OTOPARK",
            "freeTime": 15,
            "district": "ÇEKMEKÖY",
            "isOpen": true
        },
        {
            "parkId": "3004",
            "parkName": "Çekmeköy Mimar Sinan Caddesi 4",
            "lat": "41.0327",
            "lng": "29.1764",
            "capacity": 60,
            "emptyCapacity": 50,
            "workHours": "08:00-18:00",
            "parkType": "YOL ÜSTÜ",
            "freeTime": 15,
            "district": "ÇEKMEKÖY",
            "isOpen": false
        },
        {
            "parkId": "1298",
            "parkName": "Çengelköy Açık Otoparkı",
            "lat": "41.0484",
            "lng": "29.0535",
            "capacity": 500,
            "emptyCapacity": 0,
            "workHours": "24 Saat",
            "parkType": "AÇIK OTOPARK",
            "freeTime": 15,
            "district": "ÜSKÜDAR",
            "isOpen": true
        },
        {
            "parkId": "502",
            "parkName": "Çınar Açık Otoparkı",
            "lat": "41.0851",
            "lng": "29.0087",
            "capacity": 100,
            "emptyCapacity": 100,
            "workHours": "08:00-18:00",
            "parkType": "AÇIK OTOPARK",
            "freeTime": 15,
            "district": "BEŞİKTAŞ",
            "isOpen": false
        },
        {
            "parkId": "1484",
            "parkName": "Çınar Hotel Önü 1",
            "lat": "40.9595",
            "lng": "28.836",
            "capacity": 60,
            "emptyCapacity": 51,
            "workHours": "09:00-23:00",
            "parkType": "YOL ÜSTÜ",
            "freeTime": 15,
            "district": "BAKIRKÖY",
            "isOpen": true
        },
        {
            "parkId": "777",
            "parkName": "Çırağan Sarayı Yol Üstü 1",
            "lat": "41.0447",
            "lng": "29.0164",
            "capacity": 40,
            "emptyCapacity": 18,
            "workHours": "08:00-23:00",
            "parkType": "YOL ÜSTÜ",
            "freeTime": 15,
            "district": "BEŞİKTAŞ",
            "isOpen": true
        },
        {
            "parkId": "2228",
            "parkName": "Çırpıcı Sosyal Tesisler",
            "lat": "41",
            "lng": "28.8926",
            "capacity": 128,
            "emptyCapacity": 0,
            "workHours": "24 Saat",
            "parkType": "AÇIK OTOPARK",
            "freeTime": 15,
            "district": "ZEYTİNBURNU",
            "isOpen": true
        },
        {
            "parkId": "1508",
            "parkName": "Çiroz Yeşilköy Halk Pazarı",
            "lat": "40.9629",
            "lng": "28.813",
            "capacity": 471,
            "emptyCapacity": 471,
            "workHours": "08:00-18:00",
            "parkType": "AÇIK OTOPARK",
            "freeTime": 0,
            "district": "BAKIRKÖY",
            "isOpen": false
        },
        {
            "parkId": "525",
            "parkName": "Dalbastı Sokak 1",
            "lat": "41.0062",
            "lng": "28.9787",
            "capacity": 250,
            "emptyCapacity": 250,
            "workHours": "08:00-20:00",
            "parkType": "YOL ÜSTÜ",
            "freeTime": 15,
            "district": "FATİH",
            "isOpen": true
        },
        {
            "parkId": "2030",
            "parkName": "Dalyan Açık Otoparkı",
            "lat": "40.9635",
            "lng": "29.0644",
            "capacity": 120,
            "emptyCapacity": 12,
            "workHours": "24 Saat",
            "parkType": "AÇIK OTOPARK",
            "freeTime": 15,
            "district": "KADIKÖY",
            "isOpen": true
        },
        {
            "parkId": "2271",
            "parkName": "Damla Sokak 1",
            "lat": "41.0672",
            "lng": "29.0004",
            "capacity": 17,
            "emptyCapacity": 6,
            "workHours": "08:00-18:00",
            "parkType": "YOL ÜSTÜ",
            "freeTime": 15,
            "district": "ŞİŞLİ",
            "isOpen": false
        },
        {
            "parkId": "1569",
            "parkName": "Darülbedai Caddesi 1",
            "lat": "41.0485",
            "lng": "28.9914",
            "capacity": 40,
            "emptyCapacity": 15,
            "workHours": "07:00-23:00",
            "parkType": "YOL ÜSTÜ",
            "freeTime": 0,
            "district": "ŞİŞLİ",
            "isOpen": true
        },
        {
            "parkId": "1570",
            "parkName": "Darülbedai Caddesi 2",
            "lat": "41.0489",
            "lng": "28.9901",
            "capacity": 40,
            "emptyCapacity": 18,
            "workHours": "07:00-23:00",
            "parkType": "YOL ÜSTÜ",
            "freeTime": 0,
            "district": "ŞİŞLİ",
            "isOpen": true
        },
        {
            "parkId": "1939",
            "parkName": "Darülbedai Caddesi 3",
            "lat": "41.0488",
            "lng": "28.9905",
            "capacity": 40,
            "emptyCapacity": 22,
            "workHours": "07:00-23:00",
            "parkType": "YOL ÜSTÜ",
            "freeTime": 0,
            "district": "ŞİŞLİ",
            "isOpen": true
        },
        {
            "parkId": "2164",
            "parkName": "Darüşşafaka Yeraltı Otoparkı",
            "lat": "41.1293",
            "lng": "29.0252",
            "capacity": 150,
            "emptyCapacity": 96,
            "workHours": "07:00-00:00",
            "parkType": "KAPALI OTOPARK",
            "freeTime": 15,
            "district": "SARIYER",
            "isOpen": true
        },
        {
            "parkId": "1653",
            "parkName": "Deniz Feneri Otoparkı",
            "lat": "41.0013",
            "lng": "28.9768",
            "capacity": 175,
            "emptyCapacity": 72,
            "workHours": "24 Saat",
            "parkType": "AÇIK OTOPARK",
            "freeTime": 5,
            "district": "FATİH",
            "isOpen": true
        },
        {
            "parkId": "176",
            "parkName": "Dereboyu Caddesi 2",
            "lat": "41.0526",
            "lng": "29.0238",
            "capacity": 22,
            "emptyCapacity": 22,
            "workHours": "08:00-17:30",
            "parkType": "YOL ÜSTÜ",
            "freeTime": 15,
            "district": "BEŞİKTAŞ",
            "isOpen": false
        },
        {
            "parkId": "595",
            "parkName": "Dostluk Yurdu 1",
            "lat": "41.0071",
            "lng": "28.9728",
            "capacity": 50,
            "emptyCapacity": 36,
            "workHours": "07:00-17:30",
            "parkType": "YOL ÜSTÜ",
            "freeTime": 15,
            "district": "FATİH",
            "isOpen": false
        },
        {
            "parkId": "2057",
            "parkName": "Dr. Adnan Büyükdeniz Caddesi 1",
            "lat": "41.0322",
            "lng": "29.1132",
            "capacity": 30,
            "emptyCapacity": 13,
            "workHours": "07:30-17:00",
            "parkType": "YOL ÜSTÜ",
            "freeTime": 15,
            "district": "ÜMRANİYE",
            "isOpen": false
        },
        {
            "parkId": "2058",
            "parkName": "Dr. Adnan Büyükdeniz Caddesi 2",
            "lat": "41.0322",
            "lng": "29.1138",
            "capacity": 30,
            "emptyCapacity": 30,
            "workHours": "07:30-17:00",
            "parkType": "YOL ÜSTÜ",
            "freeTime": 15,
            "district": "ÜMRANİYE",
            "isOpen": false
        },
        {
            "parkId": "634",
            "parkName": "Dr.Adnan Adıvar Caddesi",
            "lat": "41.0083",
            "lng": "28.9453",
            "capacity": 15,
            "emptyCapacity": 12,
            "workHours": "08:00-17:00",
            "parkType": "YOL ÜSTÜ",
            "freeTime": 0,
            "district": "FATİH",
            "isOpen": false
        },
        {
            "parkId": "2478",
            "parkName": "Dr.Fahri Atabey Caddesi 6",
            "lat": "41.0192",
            "lng": "29.0192",
            "capacity": 32,
            "emptyCapacity": 32,
            "workHours": "09:00-17:00",
            "parkType": "YOL ÜSTÜ",
            "freeTime": 15,
            "district": "ÜSKÜDAR",
            "isOpen": false
        },
        {
            "parkId": "2237",
            "parkName": "Dragos Sosyal Tesisleri",
            "lat": "40.9017",
            "lng": "29.1456",
            "capacity": 100,
            "emptyCapacity": 4,
            "workHours": "24 Saat",
            "parkType": "AÇIK OTOPARK",
            "freeTime": 15,
            "district": "KARTAL",
            "isOpen": true
        },
        {
            "parkId": "3063",
            "parkName": "Dudullu Metro Zeminaltı P+R Otoparkı",
            "lat": "41.0156",
            "lng": "29.1633",
            "capacity": 81,
            "emptyCapacity": 62,
            "workHours": "07:00-23:00",
            "parkType": "KAPALI OTOPARK",
            "freeTime": 15,
            "district": "ÜMRANİYE",
            "isOpen": true
        },
        {
            "parkId": "851",
            "parkName": "Dumlupınar Caddesi 1",
            "lat": "40.9924",
            "lng": "28.8377",
            "capacity": 60,
            "emptyCapacity": 60,
            "workHours": "09:00-19:00",
            "parkType": "YOL ÜSTÜ",
            "freeTime": 15,
            "district": "BAHÇELİEVLER",
            "isOpen": false
        },
        {
            "parkId": "853",
            "parkName": "Dumlupınar Caddesi 3",
            "lat": "40.9924",
            "lng": "28.839",
            "capacity": 36,
            "emptyCapacity": 36,
            "workHours": "09:00-19:00",
            "parkType": "YOL ÜSTÜ",
            "freeTime": 15,
            "district": "BAHÇELİEVLER",
            "isOpen": false
        },
        {
            "parkId": "1522",
            "parkName": "Ebu Suut Caddesi 1",
            "lat": "41.013",
            "lng": "28.9764",
            "capacity": 40,
            "emptyCapacity": 40,
            "workHours": "08:00-18:00",
            "parkType": "YOL ÜSTÜ",
            "freeTime": 0,
            "district": "FATİH",
            "isOpen": false
        },
        {
            "parkId": "2147",
            "parkName": "EGS Blokları Açık Otoparkı",
            "lat": "40.9863",
            "lng": "28.8354",
            "capacity": 350,
            "emptyCapacity": 182,
            "workHours": "07:00-20:00",
            "parkType": "AÇIK OTOPARK",
            "freeTime": 60,
            "district": "BAKIRKÖY",
            "isOpen": true
        },
        {
            "parkId": "2173",
            "parkName": "Eminönü Cep Otoparkı",
            "lat": "41.017",
            "lng": "28.9761",
            "capacity": 30,
            "emptyCapacity": 30,
            "workHours": "08:00-19:00",
            "parkType": "YOL ÜSTÜ",
            "freeTime": 0,
            "district": "FATİH",
            "isOpen": false
        },
        {
            "parkId": "1132",
            "parkName": "Emirgan Korusu",
            "lat": "41.1086",
            "lng": "29.0528",
            "capacity": 300,
            "emptyCapacity": 229,
            "workHours": "07:00-22:00",
            "parkType": "AÇIK OTOPARK",
            "freeTime": 0,
            "district": "SARIYER",
            "isOpen": true
        },
        {
            "parkId": "1103",
            "parkName": "Emirgan Sahil 1",
            "lat": "41.1073",
            "lng": "29.0578",
            "capacity": 17,
            "emptyCapacity": 5,
            "workHours": "08:00-23:00",
            "parkType": "YOL ÜSTÜ",
            "freeTime": 15,
            "district": "SARIYER",
            "isOpen": true
        },
        {
            "parkId": "2645",
            "parkName": "Emirgan Sahil 2",
            "lat": "41.106",
            "lng": "29.0572",
            "capacity": 12,
            "emptyCapacity": 2,
            "workHours": "08:00-23:00",
            "parkType": "YOL ÜSTÜ",
            "freeTime": 15,
            "district": "SARIYER",
            "isOpen": true
        },
        {
            "parkId": "2646",
            "parkName": "Emirgan Sahil 3",
            "lat": "41.1052",
            "lng": "29.0569",
            "capacity": 15,
            "emptyCapacity": 1,
            "workHours": "08:00-23:00",
            "parkType": "YOL ÜSTÜ",
            "freeTime": 15,
            "district": "SARIYER",
            "isOpen": true
        },
        {
            "parkId": "2647",
            "parkName": "Emirgan Sahil 4",
            "lat": "41.1044",
            "lng": "29.0565",
            "capacity": 29,
            "emptyCapacity": 14,
            "workHours": "08:00-23:00",
            "parkType": "YOL ÜSTÜ",
            "freeTime": 15,
            "district": "SARIYER",
            "isOpen": true
        },
        {
            "parkId": "2648",
            "parkName": "Emirgan Sahil 5",
            "lat": "41.1036",
            "lng": "29.0563",
            "capacity": 29,
            "emptyCapacity": 29,
            "workHours": "08:00-23:00",
            "parkType": "YOL ÜSTÜ",
            "freeTime": 15,
            "district": "SARIYER",
            "isOpen": true
        },
        {
            "parkId": "97",
            "parkName": "Ergenekon Caddesi 1",
            "lat": "41.0531",
            "lng": "28.9833",
            "capacity": 40,
            "emptyCapacity": 30,
            "workHours": "08:00-18:00",
            "parkType": "YOL ÜSTÜ",
            "freeTime": 15,
            "district": "ŞİŞLİ",
            "isOpen": false
        },
        {
            "parkId": "2366",
            "parkName": "Esenler Adem Baştürk Kültür Merkezi Katlı",
            "lat": "41.0387",
            "lng": "28.8851",
            "capacity": 1000,
            "emptyCapacity": 242,
            "workHours": "24 Saat",
            "parkType": "KAPALI OTOPARK",
            "freeTime": 15,
            "district": "ESENLER",
            "isOpen": true
        },
        {
            "parkId": "3190",
            "parkName": "Esenler Havaalanı Mahallesi Zemin Altı Otoparkı",
            "lat": "41.0562",
            "lng": "28.8673",
            "capacity": 610,
            "emptyCapacity": 443,
            "workHours": "24 Saat",
            "parkType": "KAPALI OTOPARK",
            "freeTime": 10,
            "district": "ESENLER",
            "isOpen": true
        },
        {
            "parkId": "3011",
            "parkName": "Esenler Menderes Metro İstasyonu Yanı",
            "lat": "41.0425",
            "lng": "28.8782",
            "capacity": 120,
            "emptyCapacity": 0,
            "workHours": "24 Saat",
            "parkType": "AÇIK OTOPARK",
            "freeTime": 5,
            "district": "ESENLER",
            "isOpen": true
        },
        {
            "parkId": "2822",
            "parkName": "Esenler Menderes Parkı Zemin Altı Otoparkı",
            "lat": "41.0413",
            "lng": "28.873",
            "capacity": 316,
            "emptyCapacity": 0,
            "workHours": "24 Saat",
            "parkType": "KAPALI OTOPARK",
            "freeTime": 10,
            "district": "ESENLER",
            "isOpen": true
        },
        {
            "parkId": "1692",
            "parkName": "Eski Büyükdere Caddesi 1",
            "lat": "41.0881",
            "lng": "29.0063",
            "capacity": 30,
            "emptyCapacity": 30,
            "workHours": "08:00-18:00",
            "parkType": "YOL ÜSTÜ",
            "freeTime": 15,
            "district": "KAĞITHANE",
            "isOpen": false
        },
        {
            "parkId": "1693",
            "parkName": "Eski Büyükdere Caddesi 2",
            "lat": "41.0889",
            "lng": "29.006",
            "capacity": 30,
            "emptyCapacity": 30,
            "workHours": "08:00-18:00",
            "parkType": "YOL ÜSTÜ",
            "freeTime": 15,
            "district": "KAĞITHANE",
            "isOpen": false
        },
        {
            "parkId": "1328",
            "parkName": "Eski Salı Pazarı",
            "lat": "40.9907",
            "lng": "29.0333",
            "capacity": 760,
            "emptyCapacity": 156,
            "workHours": "24 Saat",
            "parkType": "AÇIK OTOPARK",
            "freeTime": 20,
            "district": "KADIKÖY",
            "isOpen": true
        },
        {
            "parkId": "846",
            "parkName": "Etyemez Tekkesi Sokak 2",
            "lat": "41.0029",
            "lng": "28.9367",
            "capacity": 59,
            "emptyCapacity": 59,
            "workHours": "08:00-17:00",
            "parkType": "YOL ÜSTÜ",
            "freeTime": 15,
            "district": "FATİH",
            "isOpen": false
        },
        {
            "parkId": "847",
            "parkName": "Etyemez Tekkesi Sokak 3",
            "lat": "41.0037",
            "lng": "28.9365",
            "capacity": 59,
            "emptyCapacity": 51,
            "workHours": "08:00-17:00",
            "parkType": "YOL ÜSTÜ",
            "freeTime": 15,
            "district": "FATİH",
            "isOpen": false
        },
        {
            "parkId": "1830",
            "parkName": "Eyüp İstanbul Caddesi 2",
            "lat": "41.1766",
            "lng": "28.8876",
            "capacity": 21,
            "emptyCapacity": 12,
            "workHours": "09:00-21:00",
            "parkType": "YOL ÜSTÜ",
            "freeTime": 15,
            "district": "EYÜP",
            "isOpen": true
        },
        {
            "parkId": "1831",
            "parkName": "Eyüp İstanbul Caddesi 3",
            "lat": "41.1768",
            "lng": "28.887",
            "capacity": 31,
            "emptyCapacity": 20,
            "workHours": "09:00-21:00",
            "parkType": "YOL ÜSTÜ",
            "freeTime": 15,
            "district": "EYÜP",
            "isOpen": true
        },
        {
            "parkId": "1832",
            "parkName": "Eyüp İstanbul Caddesi 4",
            "lat": "41.177",
            "lng": "28.8866",
            "capacity": 21,
            "emptyCapacity": 14,
            "workHours": "09:00-21:00",
            "parkType": "YOL ÜSTÜ",
            "freeTime": 15,
            "district": "EYÜP",
            "isOpen": true
        },
        {
            "parkId": "1833",
            "parkName": "Eyüp İstanbul Caddesi 5",
            "lat": "41.1772",
            "lng": "28.8858",
            "capacity": 30,
            "emptyCapacity": 19,
            "workHours": "09:00-21:00",
            "parkType": "YOL ÜSTÜ",
            "freeTime": 15,
            "district": "EYÜP",
            "isOpen": true
        },
        {
            "parkId": "1835",
            "parkName": "Eyüp İstanbul Caddesi 7",
            "lat": "41.1782",
            "lng": "28.8847",
            "capacity": 31,
            "emptyCapacity": 26,
            "workHours": "09:00-21:00",
            "parkType": "YOL ÜSTÜ",
            "freeTime": 15,
            "district": "EYÜP",
            "isOpen": true
        },
        {
            "parkId": "904",
            "parkName": "Eyüp Pierloti Caddesi 1",
            "lat": "41.0542",
            "lng": "28.933",
            "capacity": 40,
            "emptyCapacity": 12,
            "workHours": "09:00-23:00",
            "parkType": "YOL ÜSTÜ",
            "freeTime": 0,
            "district": "EYÜP",
            "isOpen": true
        },
        {
            "parkId": "905",
            "parkName": "Eyüp Pierloti Caddesi 2",
            "lat": "41.0542",
            "lng": "28.9329",
            "capacity": 40,
            "emptyCapacity": 17,
            "workHours": "09:00-23:00",
            "parkType": "YOL ÜSTÜ",
            "freeTime": 0,
            "district": "EYÜP",
            "isOpen": true
        },
        {
            "parkId": "1643",
            "parkName": "Eyüp Pierloti Caddesi 3",
            "lat": "41.0554",
            "lng": "28.9332",
            "capacity": 40,
            "emptyCapacity": 23,
            "workHours": "09:00-23:00",
            "parkType": "YOL ÜSTÜ",
            "freeTime": 0,
            "district": "EYÜP",
            "isOpen": true
        },
        {
            "parkId": "1644",
            "parkName": "Eyüp Pierloti Caddesi 4",
            "lat": "41.0567",
            "lng": "28.9332",
            "capacity": 40,
            "emptyCapacity": 38,
            "workHours": "09:00-23:00",
            "parkType": "YOL ÜSTÜ",
            "freeTime": 0,
            "district": "EYÜP",
            "isOpen": true
        },
        {
            "parkId": "1782",
            "parkName": "Eyüp Tekke Parkı",
            "lat": "41.0565",
            "lng": "28.9398",
            "capacity": 100,
            "emptyCapacity": 79,
            "workHours": "08:00-20:00",
            "parkType": "AÇIK OTOPARK",
            "freeTime": 15,
            "district": "EYÜP",
            "isOpen": true
        },
        {
            "parkId": "2850",
            "parkName": "Eyüpsultan Akşemsettin Mahallesi Zemin Altı Otoparkı",
            "lat": "41.0851",
            "lng": "28.9258",
            "capacity": 110,
            "emptyCapacity": 0,
            "workHours": "24 Saat",
            "parkType": "KAPALI OTOPARK",
            "freeTime": 15,
            "district": "EYÜP",
            "isOpen": true
        },
        {
            "parkId": "2289",
            "parkName": "Fatih Akşemsettin Caddesi 3",
            "lat": "41.0207",
            "lng": "28.9422",
            "capacity": 30,
            "emptyCapacity": 19,
            "workHours": "09:00-18:00",
            "parkType": "YOL ÜSTÜ",
            "freeTime": 15,
            "district": "FATİH",
            "isOpen": false
        },
        {
            "parkId": "2215",
            "parkName": "Fatih Çeşmesi Tabiat Parkı Otoparkı",
            "lat": "41.169",
            "lng": "28.9463",
            "capacity": 250,
            "emptyCapacity": 247,
            "workHours": "06:00-20:00",
            "parkType": "AÇIK OTOPARK",
            "freeTime": 0,
            "district": "SARIYER",
            "isOpen": true
        },
        {
            "parkId": "2275",
            "parkName": "Fatih Halıcılar Caddesi 1",
            "lat": "41.0183",
            "lng": "28.9482",
            "capacity": 40,
            "emptyCapacity": 40,
            "workHours": "09:00-17:30",
            "parkType": "YOL ÜSTÜ",
            "freeTime": 15,
            "district": "FATİH",
            "isOpen": false
        },
        {
            "parkId": "1475",
            "parkName": "Fatih Katlı Otoparkı",
            "lat": "41.0197",
            "lng": "28.9397",
            "capacity": 118,
            "emptyCapacity": 0,
            "workHours": "24 Saat",
            "parkType": "KAPALI OTOPARK",
            "freeTime": 10,
            "district": "FATİH",
            "isOpen": true
        },
        {
            "parkId": "2393",
            "parkName": "Fatih Kütüphane Açık Otoparkı 2",
            "lat": "41.0167",
            "lng": "28.9494",
            "capacity": 35,
            "emptyCapacity": 30,
            "workHours": "08:30-18:00",
            "parkType": "AÇIK OTOPARK",
            "freeTime": 0,
            "district": "FATİH",
            "isOpen": false
        },
        {
            "parkId": "1574",
            "parkName": "Fatih Su Yolu Sokak 1",
            "lat": "41.0162",
            "lng": "28.9541",
            "capacity": 40,
            "emptyCapacity": 27,
            "workHours": "10:00-21:30",
            "parkType": "YOL ÜSTÜ",
            "freeTime": 0,
            "district": "FATİH",
            "isOpen": true
        },
        {
            "parkId": "1575",
            "parkName": "Fatih Su Yolu Sokak 2",
            "lat": "41.0167",
            "lng": "28.9542",
            "capacity": 40,
            "emptyCapacity": 14,
            "workHours": "10:00-21:30",
            "parkType": "YOL ÜSTÜ",
            "freeTime": 0,
            "district": "FATİH",
            "isOpen": true
        },
        {
            "parkId": "1598",
            "parkName": "Fatih Uzunçarşı Caddesi 1",
            "lat": "41.0154",
            "lng": "28.9675",
            "capacity": 30,
            "emptyCapacity": 30,
            "workHours": "07:00-18:00",
            "parkType": "YOL ÜSTÜ",
            "freeTime": 0,
            "district": "FATİH",
            "isOpen": false
        },